<kml xmlns="http://www.opengis.net/kml/2.2">
  <Document>
    <name>icon-503-009D57-nodesc</name>
    <description>ВОЛС</description>
    <visibility>1</visibility>
    <Style id="icon-503-009D57-nodesc-normal">
      <IconStyle>
        <color>ff579d00</color>
        <scale>1.1</scale>
        <Icon>
          <href>/home/sivikgosh/PycharmProjects/kml_to_qgis/app/ВОЛС/503-wht-blank_maps.png</href>
        </Icon>
        <hotSpot x="16" y="32" xunits="pixels" yunits="insetPixels"/>
      </IconStyle>
      <LabelStyle>
        <scale>0</scale>
      </LabelStyle>
      <BalloonStyle>
        <text>&lt;h3&gt;$[name]&lt;/h3&gt;</text>
      </BalloonStyle>
    </Style>
    <Style id="icon-503-009D57-nodesc-highlight">
      <IconStyle>
        <color>ff579d00</color>
        <scale>1.1</scale>
        <Icon>
          <href>/home/sivikgosh/PycharmProjects/kml_to_qgis/app/ВОЛС/503-wht-blank_maps.png</href>
        </Icon>
        <hotSpot x="16" y="32" xunits="pixels" yunits="insetPixels"/>
      </IconStyle>
      <LabelStyle>
        <scale>1.1</scale>
      </LabelStyle>
      <BalloonStyle>
        <text>&lt;h3&gt;$[name]&lt;/h3&gt;</text>
      </BalloonStyle>
    </Style>
    <StyleMap id="icon-503-009D57-nodesc">
      <Pair>
        <key>normal</key>
        <styleUrl>#icon-503-009D57-nodesc-normal</styleUrl>
      </Pair>
      <Pair>
        <key>highlight</key>
        <styleUrl>#icon-503-009D57-nodesc-highlight</styleUrl>
      </Pair>
    </StyleMap>
    <Placemark>
      <name>ТК-301 (Мурановская ул.)</name>
      <visibility>1</visibility>
      <styleUrl>#icon-503-009D57-nodesc</styleUrl>
      <Point>
        <coordinates>37.596990,55.893697,0.000000</coordinates>
      </Point>
    </Placemark>
    <Placemark>
      <name>ТК-141</name>
      <visibility>1</visibility>
      <styleUrl>#icon-503-009D57-nodesc</styleUrl>
      <Point>
        <coordinates>37.830788,55.656810,0.000000</coordinates>
      </Point>
    </Placemark>
    <Placemark>
      <name>ТК-361</name>
      <visibility>1</visibility>
      <styleUrl>#icon-503-009D57-nodesc</styleUrl>
      <Point>
        <coordinates>37.821604,55.656956,0.000000</coordinates>
      </Point>
    </Placemark>
    <Placemark>
      <name>Точка 1456</name>
      <visibility>1</visibility>
      <styleUrl>#icon-503-009D57-nodesc</styleUrl>
      <Point>
        <coordinates>37.816847,55.657133,0.000000</coordinates>
      </Point>
    </Placemark>
    <Placemark>
      <name>Точка 1457</name>
      <visibility>1</visibility>
      <styleUrl>#icon-503-009D57-nodesc</styleUrl>
      <Point>
        <coordinates>37.806965,55.657334,0.000000</coordinates>
      </Point>
    </Placemark>
    <Placemark>
      <name>Точка 1458</name>
      <visibility>1</visibility>
      <styleUrl>#icon-503-009D57-nodesc</styleUrl>
      <Point>
        <coordinates>37.793212,55.657466,0.000000</coordinates>
      </Point>
    </Placemark>
    <Placemark>
      <name>ТК-42А(ул.Островитянова)</name>
      <visibility>1</visibility>
      <styleUrl>#icon-503-009D57-nodesc</styleUrl>
      <Point>
        <coordinates>37.478658,55.647282,0.000000</coordinates>
      </Point>
    </Placemark>
    <Placemark>
      <name>тк№1683 Рощинский пр 1-й
                </name>
      <visibility>1</visibility>
      <styleUrl>#icon-503-009D57-nodesc</styleUrl>
      <Point>
        <coordinates>37.605970,55.710897,0.000000</coordinates>
      </Point>
    </Placemark>
    <Placemark>
      <name>тк 54 ( от цгс 26650м)</name>
      <visibility>1</visibility>
      <styleUrl>#icon-503-009D57-nodesc</styleUrl>
      <Point>
        <coordinates>37.553499,55.556944,0.000000</coordinates>
      </Point>
    </Placemark>
    <Placemark>
      <name>ТК-106 (Кудринская пл-дь Х Б.Никитская ул.)_</name>
      <visibility>1</visibility>
      <styleUrl>#icon-503-009D57-nodesc</styleUrl>
      <Point>
        <coordinates>37.585403,55.758739,0.000000</coordinates>
      </Point>
    </Placemark>
    <Placemark>
      <name>ТК-889 (Деловая ул.)</name>
      <visibility>1</visibility>
      <styleUrl>#icon-503-009D57-nodesc</styleUrl>
      <Point>
        <coordinates>37.638669,55.626172,0.000000</coordinates>
      </Point>
    </Placemark>
    <Placemark>
      <name>ремонт муфта в тк </name>
      <visibility>1</visibility>
      <styleUrl>#icon-503-009D57-nodesc</styleUrl>
      <Point>
        <coordinates>37.176699,55.979418,0.000000</coordinates>
      </Point>
    </Placemark>
    <Placemark>
      <name>ремонт муфта в тк</name>
      <visibility>1</visibility>
      <styleUrl>#icon-503-009D57-nodesc</styleUrl>
      <Point>
        <coordinates>37.176283,55.979092,0.000000</coordinates>
      </Point>
    </Placemark>
    <Placemark>
      <name>тк 15</name>
      <visibility>1</visibility>
      <styleUrl>#icon-503-009D57-nodesc</styleUrl>
      <Point>
        <coordinates>37.484046,55.884011,0.000000</coordinates>
      </Point>
    </Placemark>
    <Placemark>
      <name>ремонтная муфта авр</name>
      <visibility>1</visibility>
      <styleUrl>#icon-503-009D57-nodesc</styleUrl>
      <Point>
        <coordinates>37.572975,55.791259,0.000000</coordinates>
      </Point>
    </Placemark>
    <Placemark>
      <name>авр муфта </name>
      <visibility>1</visibility>
      <styleUrl>#icon-503-009D57-nodesc</styleUrl>
      <Point>
        <coordinates>37.477783,55.890172,0.000000</coordinates>
      </Point>
    </Placemark>
    <Placemark>
      <name>авр муфта 2</name>
      <visibility>1</visibility>
      <styleUrl>#icon-503-009D57-nodesc</styleUrl>
      <Point>
        <coordinates>37.477799,55.889784,0.000000</coordinates>
      </Point>
    </Placemark>
  </Document>
</kml>
