<kml xmlns="http://www.opengis.net/kml/2.2">
  <Document>
    <name>icon-1151</name>
    <description>Любтелемонтаж</description>
    <visibility>1</visibility>
    <Style id="icon-1151-normal">
      <IconStyle>
        <scale>1.1</scale>
        <Icon>
          <href>/home/sivikgosh/Рабочий стол/kml/kml_to_qgis/app/Любтелемонтаж/1151-crisis-hurricane-strong.png</href>
        </Icon>
      </IconStyle>
      <LabelStyle>
        <scale>0</scale>
      </LabelStyle>
    </Style>
    <Style id="icon-1151-highlight">
      <IconStyle>
        <scale>1.1</scale>
        <Icon>
          <href>/home/sivikgosh/Рабочий стол/kml/kml_to_qgis/app/Любтелемонтаж/1151-crisis-hurricane-strong.png</href>
        </Icon>
      </IconStyle>
      <LabelStyle>
        <scale>1.1</scale>
      </LabelStyle>
    </Style>
    <Style id="icon-1151-labelson">
      <IconStyle>
        <scale>1.1</scale>
        <Icon>
          <href>/home/sivikgosh/Рабочий стол/kml/kml_to_qgis/app/Любтелемонтаж/1151-crisis-hurricane-strong.png</href>
        </Icon>
      </IconStyle>
    </Style>
    <Style id="icon-1151-nodesc-normal">
      <IconStyle>
        <scale>1.1</scale>
        <Icon>
          <href>/home/sivikgosh/Рабочий стол/kml/kml_to_qgis/app/Любтелемонтаж/1151-crisis-hurricane-strong.png</href>
        </Icon>
      </IconStyle>
      <LabelStyle>
        <scale>0</scale>
      </LabelStyle>
      <BalloonStyle>
        <text>&lt;h3&gt;$[name]&lt;/h3&gt;</text>
      </BalloonStyle>
    </Style>
    <Style id="icon-1151-nodesc-highlight">
      <IconStyle>
        <scale>1.1</scale>
        <Icon>
          <href>/home/sivikgosh/Рабочий стол/kml/kml_to_qgis/app/Любтелемонтаж/1151-crisis-hurricane-strong.png</href>
        </Icon>
      </IconStyle>
      <LabelStyle>
        <scale>1.1</scale>
      </LabelStyle>
      <BalloonStyle>
        <text>&lt;h3&gt;$[name]&lt;/h3&gt;</text>
      </BalloonStyle>
    </Style>
    <StyleMap id="icon-1151">
      <Pair>
        <key>normal</key>
        <styleUrl>#icon-1151-normal</styleUrl>
      </Pair>
      <Pair>
        <key>highlight</key>
        <styleUrl>#icon-1151-highlight</styleUrl>
      </Pair>
    </StyleMap>
    <StyleMap id="icon-1151-nodesc">
      <Pair>
        <key>normal</key>
        <styleUrl>#icon-1151-nodesc-normal</styleUrl>
      </Pair>
      <Pair>
        <key>highlight</key>
        <styleUrl>#icon-1151-nodesc-highlight</styleUrl>
      </Pair>
    </StyleMap>
    <Placemark>
      <name>Заречная д.31 к.1</name>
      <description>Любтелемонтаж</description>
      <visibility>1</visibility>
      <styleUrl>#icon-1151</styleUrl>
      <Point>
        <coordinates>37.969392,55.695014,0.000000</coordinates>
      </Point>
    </Placemark>
    <Placemark>
      <name>Заречная ул. д.33 к.11</name>
      <description>Любтелемонтаж</description>
      <visibility>1</visibility>
      <styleUrl>#icon-1151</styleUrl>
      <Point>
        <coordinates>37.968080,55.693443,0.000000</coordinates>
      </Point>
    </Placemark>
    <Placemark>
      <name>Заречная ул. д.31 к.3</name>
      <visibility>1</visibility>
      <styleUrl>#icon-1151-nodesc</styleUrl>
      <Point>
        <coordinates>37.970708,55.695353,0.000000</coordinates>
      </Point>
    </Placemark>
    <Placemark>
      <name>Карла Маркса ул. д.83</name>
      <description>Любтелемонтж</description>
      <visibility>1</visibility>
      <styleUrl>#icon-1151</styleUrl>
      <Point>
        <coordinates>37.986895,55.658569,0.000000</coordinates>
      </Point>
    </Placemark>
    <Placemark>
      <name>Заречная ул. д.31 к.5</name>
      <description>Любтелемонтаж</description>
      <visibility>1</visibility>
      <styleUrl>#icon-1151</styleUrl>
      <Point>
        <coordinates>37.971947,55.695217,0.000000</coordinates>
      </Point>
    </Placemark>
    <Placemark>
      <name>Заречная ул. д.33 к.8</name>
      <description>Любтелемонтаж</description>
      <visibility>1</visibility>
      <styleUrl>#icon-1151</styleUrl>
      <Point>
        <coordinates>37.966878,55.693658,0.000000</coordinates>
      </Point>
    </Placemark>
    <Placemark>
      <name>Заречная ул. д.33 к.8</name>
      <description>Любтелемонтаж</description>
      <visibility>1</visibility>
      <styleUrl>#icon-1151</styleUrl>
      <Point>
        <coordinates>37.966267,55.693567,0.000000</coordinates>
      </Point>
    </Placemark>
    <Placemark>
      <name>Заречная ул. д.33 к.4</name>
      <description>Любтелемонтаж</description>
      <visibility>1</visibility>
      <styleUrl>#icon-1151</styleUrl>
      <Point>
        <coordinates>37.967023,55.694940,0.000000</coordinates>
      </Point>
    </Placemark>
    <Placemark>
      <name>Заречная ул. д.31 к.4</name>
      <description>Любтелемонтаж</description>
      <visibility>1</visibility>
      <styleUrl>#icon-1151</styleUrl>
      <Point>
        <coordinates>37.971320,55.695339,0.000000</coordinates>
      </Point>
    </Placemark>
    <Placemark>
      <name>Хлебозаводской пр. д.1</name>
      <description>Любтелемонтаж</description>
      <visibility>1</visibility>
      <styleUrl>#icon-1151</styleUrl>
      <Point>
        <coordinates>37.911031,55.668474,0.000000</coordinates>
      </Point>
    </Placemark>
    <Placemark>
      <name>Набережная ул., д.9</name>
      <description>Любтелемонтаж</description>
      <visibility>1</visibility>
      <styleUrl>#icon-1151</styleUrl>
      <Point>
        <coordinates>37.899930,55.573354,0.000000</coordinates>
      </Point>
    </Placemark>
    <Placemark>
      <name>60-лет Победы д.2</name>
      <description>Любтелемонтаж</description>
      <visibility>1</visibility>
      <styleUrl>#icon-1151</styleUrl>
      <Point>
        <coordinates>37.968415,55.605168,0.000000</coordinates>
      </Point>
    </Placemark>
    <Placemark>
      <name>60-лет Победы д.3</name>
      <description>Любтелемонтаж</description>
      <visibility>1</visibility>
      <styleUrl>#icon-1151</styleUrl>
      <Point>
        <coordinates>37.967943,55.605662,0.000000</coordinates>
      </Point>
    </Placemark>
    <Placemark>
      <name>Текстильщиков ул. д.7А</name>
      <description>Любтелемонтаж</description>
      <visibility>1</visibility>
      <styleUrl>#icon-1151</styleUrl>
      <Point>
        <coordinates>37.970163,55.606940,0.000000</coordinates>
      </Point>
    </Placemark>
    <Placemark>
      <name>Текстильщиков ул. д.7Б</name>
      <description>Любтелемонтаж</description>
      <visibility>1</visibility>
      <styleUrl>#icon-1151</styleUrl>
      <Point>
        <coordinates>37.969504,55.606010,0.000000</coordinates>
      </Point>
    </Placemark>
    <Placemark>
      <name>Осовиахимовский пр. д.10</name>
      <description>Любтелемонтаж</description>
      <visibility>1</visibility>
      <styleUrl>#icon-1151</styleUrl>
      <Point>
        <coordinates>37.996438,55.656894,0.000000</coordinates>
      </Point>
    </Placemark>
    <Placemark>
      <name>Фабричная ул. д.6</name>
      <description>Любтелемонтаж</description>
      <visibility>1</visibility>
      <styleUrl>#icon-1151</styleUrl>
      <Point>
        <coordinates>37.973613,55.614963,0.000000</coordinates>
      </Point>
    </Placemark>
    <Placemark>
      <name>Фабричная ул. д.7</name>
      <description>Любтелемонтаж</description>
      <visibility>1</visibility>
      <styleUrl>#icon-1151</styleUrl>
      <Point>
        <coordinates>37.973752,55.615336,0.000000</coordinates>
      </Point>
    </Placemark>
    <Placemark>
      <name>Карла Маркса ул. д.94</name>
      <description>Любтелемонтаж</description>
      <visibility>1</visibility>
      <styleUrl>#icon-1151</styleUrl>
      <Point>
        <coordinates>37.995379,55.660811,0.000000</coordinates>
      </Point>
    </Placemark>
    <Placemark>
      <name>КСЗ д.17</name>
      <description>Любтелемонтаж</description>
      <visibility>1</visibility>
      <styleUrl>#icon-1151</styleUrl>
      <Point>
        <coordinates>38.001264,55.662411,0.000000</coordinates>
      </Point>
    </Placemark>
    <Placemark>
      <name>КСЗ д.22</name>
      <description>Любтелемонтаж</description>
      <visibility>1</visibility>
      <styleUrl>#icon-1151</styleUrl>
      <Point>
        <coordinates>37.999740,55.662442,0.000000</coordinates>
      </Point>
    </Placemark>
    <Placemark>
      <name>Некрасова ул. д.6</name>
      <description>Любтелемонтаж</description>
      <visibility>1</visibility>
      <styleUrl>#icon-1151</styleUrl>
      <Point>
        <coordinates>38.002573,55.673818,0.000000</coordinates>
      </Point>
    </Placemark>
    <Placemark>
      <name>КСЗ д.9</name>
      <description>Любтелемонтаж</description>
      <visibility>1</visibility>
      <styleUrl>#icon-1151</styleUrl>
      <Point>
        <coordinates>38.000937,55.662587,0.000000</coordinates>
      </Point>
    </Placemark>
    <Placemark>
      <name>Островского ул. д.8</name>
      <description>Любтелемонтаж</description>
      <visibility>1</visibility>
      <styleUrl>#icon-1151</styleUrl>
      <Point>
        <coordinates>38.005618,55.669814,0.000000</coordinates>
      </Point>
    </Placemark>
    <Placemark>
      <name>2-я Заводкая ул. д.21</name>
      <description>Любтелемонтаж</description>
      <visibility>1</visibility>
      <styleUrl>#icon-1151</styleUrl>
      <Point>
        <coordinates>37.976217,55.661074,0.000000</coordinates>
      </Point>
    </Placemark>
    <Placemark>
      <name>Заречная ул. д.33 к.2</name>
      <description>Любтелемонтаж</description>
      <visibility>1</visibility>
      <styleUrl>#icon-1151</styleUrl>
      <Point>
        <coordinates>37.965749,55.694910,0.000000</coordinates>
      </Point>
    </Placemark>
    <Placemark>
      <name>Заречная ул. д.33 к.3</name>
      <description>Любтелемонтаж</description>
      <visibility>1</visibility>
      <styleUrl>#icon-1151</styleUrl>
      <Point>
        <coordinates>37.966435,55.694980,0.000000</coordinates>
      </Point>
    </Placemark>
    <Placemark>
      <name>Заречная ул. д.33 к.5</name>
      <description>Любтелемонтаж</description>
      <visibility>1</visibility>
      <styleUrl>#icon-1151</styleUrl>
      <Point>
        <coordinates>37.967723,55.694919,0.000000</coordinates>
      </Point>
    </Placemark>
    <Placemark>
      <name>Заречная ул. д.33 к.7</name>
      <description>Любтелемонтаж</description>
      <visibility>1</visibility>
      <styleUrl>#icon-1151</styleUrl>
      <Point>
        <coordinates>37.965497,55.693538,0.000000</coordinates>
      </Point>
    </Placemark>
    <Placemark>
      <name>Заречная ул. д.33 к.12</name>
      <description>Любтелемонтаж</description>
      <visibility>1</visibility>
      <styleUrl>#icon-1151</styleUrl>
      <Point>
        <coordinates>37.968796,55.693907,0.000000</coordinates>
      </Point>
    </Placemark>
  </Document>
</kml>
