<kml xmlns="http://www.opengis.net/kml/2.2">
  <Document>
    <name>icon-1121-labelson-nodesc</name>
    <description>Муфты</description>
    <visibility>1</visibility>
    <Style id="icon-1121-labelson-nodesc">
      <IconStyle>
        <scale>1.1</scale>
        <Icon>
          <href>/home/sivikgosh/PycharmProjects/kml_to_qgis/app/Муфты/1121-crisis-animal.png</href>
        </Icon>
      </IconStyle>
      <BalloonStyle>
        <text>&lt;h3&gt;$[name]&lt;/h3&gt;</text>
      </BalloonStyle>
    </Style>
    <Placemark>
      <name>ул. Вешних вод, д.8к.2</name>
      <visibility>1</visibility>
      <styleUrl>#icon-1121-labelson-nodesc</styleUrl>
      <Point>
        <coordinates>37.699712,55.859546,0.000000</coordinates>
      </Point>
    </Placemark>
    <Placemark>
      <name>ул. Вешних Вод, д.8 к.3</name>
      <visibility>1</visibility>
      <styleUrl>#icon-1121-labelson-nodesc</styleUrl>
      <Point>
        <coordinates>37.700009,55.859114,0.000000</coordinates>
      </Point>
    </Placemark>
    <Placemark>
      <name>ул. Вешних Вод, д.8 к.1</name>
      <visibility>1</visibility>
      <styleUrl>#icon-1121-labelson-nodesc</styleUrl>
      <Point>
        <coordinates>37.698960,55.860219,0.000000</coordinates>
      </Point>
    </Placemark>
    <Placemark>
      <name>ул. Вешних Вод, д.4, к.1</name>
      <visibility>1</visibility>
      <styleUrl>#icon-1121-labelson-nodesc</styleUrl>
      <Point>
        <coordinates>37.697107,55.859022,0.000000</coordinates>
      </Point>
    </Placemark>
    <Placemark>
      <name>Ленинградское шоссе, д.25 к.1</name>
      <visibility>1</visibility>
      <styleUrl>#icon-1121-labelson-nodesc</styleUrl>
      <Point>
        <coordinates>37.488792,55.827166,0.000000</coordinates>
      </Point>
    </Placemark>
    <Placemark>
      <name>Ленинградское шоссе, д.25 к.2</name>
      <visibility>1</visibility>
      <styleUrl>#icon-1121-labelson-nodesc</styleUrl>
      <Point>
        <coordinates>37.487493,55.827685,0.000000</coordinates>
      </Point>
    </Placemark>
  </Document>
</kml>
