<kml xmlns="http://www.opengis.net/kml/2.2">
  <Document>
    <name>icon-503-B29189-labelson-nodesc</name>
    <description>Муфты</description>
    <visibility>1</visibility>
    <Style id="icon-503-B29189-labelson-nodesc">
      <IconStyle>
        <color>ff8991b2</color>
        <scale>1.1</scale>
        <Icon>
          <href>/home/sivikgosh/Рабочий стол/kml/kml_to_qgis/app/pictograms/503-wht-blank_maps.png</href>
        </Icon>
        <hotSpot x="16" y="32" xunits="pixels" yunits="insetPixels"/>
      </IconStyle>
      <BalloonStyle>
        <text>&lt;h3&gt;$[name]&lt;/h3&gt;</text>
      </BalloonStyle>
    </Style>
    <Placemark>
      <name>ТК-28 (9-я рота ул.)</name>
      <visibility>1</visibility>
      <styleUrl>#icon-503-B29189-labelson-nodesc</styleUrl>
      <Point>
        <coordinates>37.712599,55.792470,0.000000</coordinates>
      </Point>
    </Placemark>
    <Placemark>
      <name>ТК-259 (11-я Парковая)</name>
      <visibility>1</visibility>
      <styleUrl>#icon-503-B29189-labelson-nodesc</styleUrl>
      <Point>
        <coordinates>37.805103,55.806195,0.000000</coordinates>
      </Point>
    </Placemark>
    <Placemark>
      <name>ТК-261а (11-я Парковая)</name>
      <visibility>1</visibility>
      <styleUrl>#icon-503-B29189-labelson-nodesc</styleUrl>
      <Point>
        <coordinates>37.805194,55.804510,0.000000</coordinates>
      </Point>
    </Placemark>
    <Placemark>
      <name>ТК-19 (11-я Парковая)</name>
      <visibility>1</visibility>
      <styleUrl>#icon-503-B29189-labelson-nodesc</styleUrl>
      <Point>
        <coordinates>37.804945,55.810010,0.000000</coordinates>
      </Point>
    </Placemark>
    <Placemark>
      <name>ТК-267а (Мичуринский пр-т)</name>
      <visibility>1</visibility>
      <styleUrl>#icon-503-B29189-labelson-nodesc</styleUrl>
      <Point>
        <coordinates>37.490957,55.693042,0.000000</coordinates>
      </Point>
    </Placemark>
    <Placemark>
      <name>ТК-31 (Трифоновская ул.)</name>
      <visibility>1</visibility>
      <styleUrl>#icon-503-B29189-labelson-nodesc</styleUrl>
      <Point>
        <coordinates>37.631720,55.789635,0.000000</coordinates>
      </Point>
    </Placemark>
    <Placemark>
      <name>ТК-12 (Северный б-р)</name>
      <visibility>1</visibility>
      <styleUrl>#icon-503-B29189-labelson-nodesc</styleUrl>
      <Point>
        <coordinates>37.601513,55.865378,0.000000</coordinates>
      </Point>
    </Placemark>
    <Placemark>
      <name>ТК-892 (Северныйб-р)</name>
      <visibility>1</visibility>
      <styleUrl>#icon-503-B29189-labelson-nodesc</styleUrl>
      <Point>
        <coordinates>37.618942,55.869799,0.000000</coordinates>
      </Point>
    </Placemark>
    <Placemark>
      <name>ТК-70 (Щепкина ул.)</name>
      <visibility>1</visibility>
      <styleUrl>#icon-503-B29189-labelson-nodesc</styleUrl>
      <Point>
        <coordinates>37.630835,55.785328,0.000000</coordinates>
      </Point>
    </Placemark>
    <Placemark>
      <name>ТК-135 (ул. Вешних Вод)</name>
      <visibility>1</visibility>
      <styleUrl>#icon-503-B29189-labelson-nodesc</styleUrl>
      <Point>
        <coordinates>37.693577,55.859656,0.000000</coordinates>
      </Point>
    </Placemark>
    <Placemark>
      <name>ТК-203 (Вернадского пр-т)</name>
      <visibility>1</visibility>
      <styleUrl>#icon-503-B29189-labelson-nodesc</styleUrl>
      <Point>
        <coordinates>37.506069,55.676774,0.000000</coordinates>
      </Point>
    </Placemark>
    <Placemark>
      <name>ТК-144 (Норильская ул.)</name>
      <visibility>1</visibility>
      <styleUrl>#icon-503-B29189-labelson-nodesc</styleUrl>
      <Point>
        <coordinates>37.695905,55.881889,0.000000</coordinates>
      </Point>
    </Placemark>
    <Placemark>
      <name>ТК-20 (Щелковское ш.)</name>
      <visibility>1</visibility>
      <styleUrl>#icon-503-B29189-labelson-nodesc</styleUrl>
      <Point>
        <coordinates>37.807794,55.810229,0.000000</coordinates>
      </Point>
    </Placemark>
    <Placemark>
      <name>ТК-59 (Ярославское ш.)</name>
      <visibility>1</visibility>
      <styleUrl>#icon-503-B29189-labelson-nodesc</styleUrl>
      <Point>
        <coordinates>37.697740,55.864074,0.000000</coordinates>
      </Point>
    </Placemark>
    <Placemark>
      <name>ТК-19 (Федоскинская ул.)</name>
      <visibility>1</visibility>
      <styleUrl>#icon-503-B29189-labelson-nodesc</styleUrl>
      <Point>
        <coordinates>37.701082,55.869189,0.000000</coordinates>
      </Point>
    </Placemark>
    <Placemark>
      <name>ТК-137 (Минусинская ул.)</name>
      <visibility>1</visibility>
      <styleUrl>#icon-503-B29189-labelson-nodesc</styleUrl>
      <Point>
        <coordinates>37.695090,55.872064,0.000000</coordinates>
      </Point>
    </Placemark>
    <Placemark>
      <name>ТК-6 (Изумрудная ул.)</name>
      <visibility>1</visibility>
      <styleUrl>#icon-503-B29189-labelson-nodesc</styleUrl>
      <Point>
        <coordinates>37.689704,55.875708,0.000000</coordinates>
      </Point>
    </Placemark>
    <Placemark>
      <name>ТК-120 (Таймырская ул.)</name>
      <visibility>1</visibility>
      <styleUrl>#icon-503-B29189-labelson-nodesc</styleUrl>
      <Point>
        <coordinates>37.701039,55.884723,0.000000</coordinates>
      </Point>
    </Placemark>
    <Placemark>
      <name>ТК-1256а (Коштоянца ул.)</name>
      <visibility>1</visibility>
      <styleUrl>#icon-503-B29189-labelson-nodesc</styleUrl>
      <Point>
        <coordinates>37.491209,55.679986,0.000000</coordinates>
      </Point>
    </Placemark>
    <Placemark>
      <name>ТК-927 (Удальцова ул.)</name>
      <visibility>1</visibility>
      <styleUrl>#icon-503-B29189-labelson-nodesc</styleUrl>
      <Point>
        <coordinates>37.495421,55.681111,0.000000</coordinates>
      </Point>
    </Placemark>
    <Placemark>
      <name>ТК-256а (Коштоянца ул.)</name>
      <visibility>1</visibility>
      <styleUrl>#icon-503-B29189-labelson-nodesc</styleUrl>
      <Point>
        <coordinates>37.492025,55.679476,0.000000</coordinates>
      </Point>
    </Placemark>
    <Placemark>
      <name>Тех. этаж (Коштоянца, д.2)</name>
      <visibility>1</visibility>
      <styleUrl>#icon-503-B29189-labelson-nodesc</styleUrl>
      <Point>
        <coordinates>37.491317,55.680122,0.000000</coordinates>
      </Point>
    </Placemark>
    <Placemark>
      <name>ТК-1136 (Коштоянца ул.)</name>
      <visibility>1</visibility>
      <styleUrl>#icon-503-B29189-labelson-nodesc</styleUrl>
      <Point>
        <coordinates>37.487218,55.677723,0.000000</coordinates>
      </Point>
    </Placemark>
    <Placemark>
      <name>Подвал (Коштоянца ул., д.6)</name>
      <visibility>1</visibility>
      <styleUrl>#icon-503-B29189-labelson-nodesc</styleUrl>
      <Point>
        <coordinates>37.489193,55.678794,0.000000</coordinates>
      </Point>
    </Placemark>
    <Placemark>
      <name>ТК-225 (Лазоревый пр-д)</name>
      <visibility>1</visibility>
      <styleUrl>#icon-503-B29189-labelson-nodesc</styleUrl>
      <Point>
        <coordinates>37.634370,55.849704,0.000000</coordinates>
      </Point>
    </Placemark>
    <Placemark>
      <name>ТК-123а (Щелковское ш.)</name>
      <visibility>1</visibility>
      <styleUrl>#icon-503-B29189-labelson-nodesc</styleUrl>
      <Point>
        <coordinates>37.798076,55.809985,0.000000</coordinates>
      </Point>
    </Placemark>
    <Placemark>
      <name>ТК-245 (Щелковское ш.)</name>
      <visibility>1</visibility>
      <styleUrl>#icon-503-B29189-labelson-nodesc</styleUrl>
      <Point>
        <coordinates>37.799022,55.810012,0.000000</coordinates>
      </Point>
    </Placemark>
    <Placemark>
      <name>ТК-256 (11-я Парковая ул.)</name>
      <visibility>1</visibility>
      <styleUrl>#icon-503-B29189-labelson-nodesc</styleUrl>
      <Point>
        <coordinates>37.804846,55.809108,0.000000</coordinates>
      </Point>
    </Placemark>
    <Placemark>
      <name>ТК-116а (Щелковское ш.)</name>
      <visibility>1</visibility>
      <styleUrl>#icon-503-B29189-labelson-nodesc</styleUrl>
      <Point>
        <coordinates>37.785609,55.809582,0.000000</coordinates>
      </Point>
    </Placemark>
    <Placemark>
      <name>ТК-264 (Амурская ул.)</name>
      <visibility>1</visibility>
      <styleUrl>#icon-503-B29189-labelson-nodesc</styleUrl>
      <Point>
        <coordinates>37.785673,55.813177,0.000000</coordinates>
      </Point>
    </Placemark>
    <Placemark>
      <name>ТК-120 (Спартаковская пл.)</name>
      <visibility>1</visibility>
      <styleUrl>#icon-503-B29189-labelson-nodesc</styleUrl>
      <Point>
        <coordinates>37.672817,55.771239,0.000000</coordinates>
      </Point>
    </Placemark>
    <Placemark>
      <name>ТК-688 (Щелковское ш.)</name>
      <visibility>1</visibility>
      <styleUrl>#icon-503-B29189-labelson-nodesc</styleUrl>
      <Point>
        <coordinates>37.772627,55.807371,0.000000</coordinates>
      </Point>
    </Placemark>
    <Placemark>
      <name>ТК-16 (Снежная ул.)</name>
      <visibility>1</visibility>
      <styleUrl>#icon-503-B29189-labelson-nodesc</styleUrl>
      <Point>
        <coordinates>37.648693,55.853806,0.000000</coordinates>
      </Point>
    </Placemark>
    <Placemark>
      <name>ТК-22 (Снежная ул.)</name>
      <visibility>1</visibility>
      <styleUrl>#icon-503-B29189-labelson-nodesc</styleUrl>
      <Point>
        <coordinates>37.652233,55.855862,0.000000</coordinates>
      </Point>
    </Placemark>
    <Placemark>
      <name>ТК-264 (Изумрудная ул.)</name>
      <visibility>1</visibility>
      <styleUrl>#icon-503-B29189-labelson-nodesc</styleUrl>
      <Point>
        <coordinates>37.684160,55.872390,0.000000</coordinates>
      </Point>
    </Placemark>
    <Placemark>
      <name>тк№323 ул. Вешних Вод</name>
      <visibility>1</visibility>
      <styleUrl>#icon-503-B29189-labelson-nodesc</styleUrl>
      <Point>
        <coordinates>37.699378,55.858778,0.000000</coordinates>
      </Point>
    </Placemark>
    <Placemark>
      <name>ТК-6 (Переведеновский пер.)</name>
      <visibility>1</visibility>
      <styleUrl>#icon-503-B29189-labelson-nodesc</styleUrl>
      <Point>
        <coordinates>37.683444,55.776972,0.000000</coordinates>
      </Point>
    </Placemark>
    <Placemark>
      <name>ТК-135 (Переведеновский пер.)</name>
      <visibility>1</visibility>
      <styleUrl>#icon-503-B29189-labelson-nodesc</styleUrl>
      <Point>
        <coordinates>37.693577,55.780995,0.000000</coordinates>
      </Point>
    </Placemark>
    <Placemark>
      <name>ТК-197 пр. Буденного
                </name>
      <visibility>1</visibility>
      <styleUrl>#icon-503-B29189-labelson-nodesc</styleUrl>
      <Point>
        <coordinates>37.721025,55.779005,0.000000</coordinates>
      </Point>
    </Placemark>
    <Placemark>
      <name>ТК-276</name>
      <visibility>1</visibility>
      <styleUrl>#icon-503-B29189-labelson-nodesc</styleUrl>
      <Point>
        <coordinates>37.629516,55.848949,0.000000</coordinates>
      </Point>
    </Placemark>
    <Placemark>
      <name>тк№179б Окружной пр
                </name>
      <visibility>1</visibility>
      <styleUrl>#icon-503-B29189-labelson-nodesc</styleUrl>
      <Point>
        <coordinates>37.743600,55.785900,0.000000</coordinates>
      </Point>
    </Placemark>
    <Placemark>
      <name>тк№287 Измайловское шоссе
                </name>
      <visibility>1</visibility>
      <styleUrl>#icon-503-B29189-labelson-nodesc</styleUrl>
      <Point>
        <coordinates>37.754361,55.788214,0.000000</coordinates>
      </Point>
    </Placemark>
    <Placemark>
      <name>тк№163а ул. Первомайская
                </name>
      <visibility>1</visibility>
      <styleUrl>#icon-503-B29189-labelson-nodesc</styleUrl>
      <Point>
        <coordinates>37.767178,55.789250,0.000000</coordinates>
      </Point>
    </Placemark>
    <Placemark>
      <name>тк№34 МКАД 7км(внеш)
                </name>
      <visibility>1</visibility>
      <styleUrl>#icon-503-B29189-labelson-nodesc</styleUrl>
      <Point>
        <coordinates>37.838492,55.714228,0.000000</coordinates>
      </Point>
    </Placemark>
    <Placemark>
      <name>тк№276б ул. Ак. Анохина
                </name>
      <visibility>1</visibility>
      <styleUrl>#icon-503-B29189-labelson-nodesc</styleUrl>
      <Point>
        <coordinates>37.470507,55.652981,0.000000</coordinates>
      </Point>
    </Placemark>
    <Placemark>
      <name>тк№394а ул. Ак. Анохина
                </name>
      <visibility>1</visibility>
      <styleUrl>#icon-503-B29189-labelson-nodesc</styleUrl>
      <Point>
        <coordinates>37.469817,55.650564,0.000000</coordinates>
      </Point>
    </Placemark>
    <Placemark>
      <name>тк№397а ул. Ак. Анохина
                </name>
      <visibility>1</visibility>
      <styleUrl>#icon-503-B29189-labelson-nodesc</styleUrl>
      <Point>
        <coordinates>37.469248,55.648558,0.000000</coordinates>
      </Point>
    </Placemark>
  </Document>
</kml>
