<kml xmlns="http://www.opengis.net/kml/2.2">
  <Document>
    <name>icon-1337-nodesc</name>
    <description>Узлы</description>
    <visibility>1</visibility>
    <Style id="icon-1337-nodesc-normal">
      <IconStyle>
        <scale>1.1</scale>
        <Icon>
          <href>/home/sivikgosh/PycharmProjects/kml_to_qgis/app/Узлы/1337-poi-temple.png</href>
        </Icon>
      </IconStyle>
      <LabelStyle>
        <scale>0</scale>
      </LabelStyle>
      <BalloonStyle>
        <text>&lt;h3&gt;$[name]&lt;/h3&gt;</text>
      </BalloonStyle>
    </Style>
    <Style id="icon-1337-nodesc-highlight">
      <IconStyle>
        <scale>1.1</scale>
        <Icon>
          <href>/home/sivikgosh/PycharmProjects/kml_to_qgis/app/Узлы/1337-poi-temple.png</href>
        </Icon>
      </IconStyle>
      <LabelStyle>
        <scale>1.1</scale>
      </LabelStyle>
      <BalloonStyle>
        <text>&lt;h3&gt;$[name]&lt;/h3&gt;</text>
      </BalloonStyle>
    </Style>
    <StyleMap id="icon-1337-nodesc">
      <Pair>
        <key>normal</key>
        <styleUrl>#icon-1337-nodesc-normal</styleUrl>
      </Pair>
      <Pair>
        <key>highlight</key>
        <styleUrl>#icon-1337-nodesc-highlight</styleUrl>
      </Pair>
    </StyleMap>
    <Placemark>
      <name>ЦОД 3data-Б17-"Бутлерова"</name>
      <visibility>1</visibility>
      <styleUrl>#icon-1337-nodesc</styleUrl>
      <Point>
        <coordinates>37.540971,55.648351,0.000000</coordinates>
      </Point>
    </Placemark>
    <Placemark>
      <name>ЦОД 3data-БА81-Б.Академическая</name>
      <visibility>1</visibility>
      <styleUrl>#icon-1337-nodesc</styleUrl>
      <Point>
        <coordinates>37.544867,55.839344,0.000000</coordinates>
      </Point>
    </Placemark>
    <Placemark>
      <name>ЦОД 3data-БМ1-Шарапово</name>
      <visibility>1</visibility>
      <styleUrl>#icon-1337-nodesc</styleUrl>
      <Point>
        <coordinates>37.165606,55.580425,0.000000</coordinates>
      </Point>
    </Placemark>
    <Placemark>
      <name>ЦОД 3data-БП54-Большая Полянка</name>
      <visibility>1</visibility>
      <styleUrl>#icon-1337-nodesc</styleUrl>
      <Point>
        <coordinates>37.621054,55.730772,0.000000</coordinates>
      </Point>
    </Placemark>
    <Placemark>
      <name>ЦОД 3data-М8-8 марта</name>
      <visibility>1</visibility>
      <styleUrl>#icon-1337-nodesc</styleUrl>
      <Point>
        <coordinates>37.556782,55.801691,0.000000</coordinates>
      </Point>
    </Placemark>
    <Placemark>
      <name>ЦОД 3data-Н10-Напрудный</name>
      <visibility>1</visibility>
      <styleUrl>#icon-1337-nodesc</styleUrl>
      <Point>
        <coordinates>37.631391,55.788139,0.000000</coordinates>
      </Point>
    </Placemark>
    <Placemark>
      <name>ЦОД 3data-НР26-Новорязанская</name>
      <visibility>1</visibility>
      <styleUrl>#icon-1337-nodesc</styleUrl>
      <Point>
        <coordinates>37.666384,55.771685,0.000000</coordinates>
      </Point>
    </Placemark>
    <Placemark>
      <name>ЦОД 3data-П6-Правобережная</name>
      <visibility>1</visibility>
      <styleUrl>#icon-1337-nodesc</styleUrl>
      <Point>
        <coordinates>37.454602,55.882083,0.000000</coordinates>
      </Point>
    </Placemark>
    <Placemark>
      <name>ЦОД 3data-СА107-Сынково</name>
      <visibility>1</visibility>
      <styleUrl>#icon-1337-nodesc</styleUrl>
      <Point>
        <coordinates>37.591216,55.340684,0.000000</coordinates>
      </Point>
    </Placemark>
    <Placemark>
      <name>ЦОД 3data-СК19-Садово-Кудринская</name>
      <visibility>1</visibility>
      <styleUrl>#icon-1337-nodesc</styleUrl>
      <Point>
        <coordinates>37.587675,55.765008,0.000000</coordinates>
      </Point>
    </Placemark>
    <Placemark>
      <name>ЦОД 3data-У8-Угрешский</name>
      <visibility>1</visibility>
      <styleUrl>#icon-1337-nodesc</styleUrl>
      <Point>
        <coordinates>37.697547,55.711953,0.000000</coordinates>
      </Point>
    </Placemark>
    <Placemark>
      <name>ЦОД 3data-Э2-Энтузиастов</name>
      <visibility>1</visibility>
      <styleUrl>#icon-1337-nodesc</styleUrl>
      <Point>
        <coordinates>37.722975,55.751218,0.000000</coordinates>
      </Point>
    </Placemark>
    <Placemark>
      <name>ЦОД ColoCAT Кунцево</name>
      <visibility>1</visibility>
      <styleUrl>#icon-1337-nodesc</styleUrl>
      <Point>
        <coordinates>37.401920,55.734734,0.000000</coordinates>
      </Point>
    </Placemark>
    <Placemark>
      <name>ЦОД Datacheap.ru</name>
      <visibility>1</visibility>
      <styleUrl>#icon-1337-nodesc</styleUrl>
      <Point>
        <coordinates>37.688953,55.712713,0.000000</coordinates>
      </Point>
    </Placemark>
    <Placemark>
      <name>ЦОД DataPlanet</name>
      <visibility>1</visibility>
      <styleUrl>#icon-1337-nodesc</styleUrl>
      <Point>
        <coordinates>37.259609,55.980410,0.000000</coordinates>
      </Point>
    </Placemark>
    <Placemark>
      <name>ЦОД ESTT</name>
      <visibility>1</visibility>
      <styleUrl>#icon-1337-nodesc</styleUrl>
      <Point>
        <coordinates>37.594108,55.889098,0.000000</coordinates>
      </Point>
    </Placemark>
    <Placemark>
      <name>ЦОД GreenBushDC</name>
      <visibility>1</visibility>
      <styleUrl>#icon-1337-nodesc</styleUrl>
      <Point>
        <coordinates>37.156402,56.004395,0.000000</coordinates>
      </Point>
    </Placemark>
    <Placemark>
      <name>ЦОД IT Energy Китай-город</name>
      <visibility>1</visibility>
      <styleUrl>#icon-1337-nodesc</styleUrl>
      <Point>
        <coordinates>37.635319,55.751734,0.000000</coordinates>
      </Point>
    </Placemark>
    <Placemark>
      <name>ЦОД IXcellerate Moscow Two</name>
      <visibility>1</visibility>
      <styleUrl>#icon-1337-nodesc</styleUrl>
      <Point>
        <coordinates>37.580228,55.862786,0.000000</coordinates>
      </Point>
    </Placemark>
    <Placemark>
      <name>ЦОД MasterHost</name>
      <visibility>1</visibility>
      <styleUrl>#icon-1337-nodesc</styleUrl>
      <Point>
        <coordinates>37.606305,55.824174,0.000000</coordinates>
      </Point>
    </Placemark>
    <Placemark>
      <name>ЦОД Metrex</name>
      <visibility>1</visibility>
      <styleUrl>#icon-1337-nodesc</styleUrl>
      <Point>
        <coordinates>37.571345,55.778291,0.000000</coordinates>
      </Point>
    </Placemark>
    <Placemark>
      <name>ЦОД MTW Бункер</name>
      <visibility>1</visibility>
      <styleUrl>#icon-1337-nodesc</styleUrl>
      <Point>
        <coordinates>37.795763,55.902873,0.000000</coordinates>
      </Point>
    </Placemark>
    <Placemark>
      <name>ЦОД NeoCommunications</name>
      <visibility>1</visibility>
      <styleUrl>#icon-1337-nodesc</styleUrl>
      <Point>
        <coordinates>37.598066,55.664057,0.000000</coordinates>
      </Point>
    </Placemark>
    <Placemark>
      <name>ЦОД PlanetaHost</name>
      <visibility>1</visibility>
      <styleUrl>#icon-1337-nodesc</styleUrl>
      <Point>
        <coordinates>37.689779,55.780606,0.000000</coordinates>
      </Point>
    </Placemark>
    <Placemark>
      <name>ЦОД RackStore-R1</name>
      <visibility>1</visibility>
      <styleUrl>#icon-1337-nodesc</styleUrl>
      <Point>
        <coordinates>37.533625,55.655189,0.000000</coordinates>
      </Point>
    </Placemark>
    <Placemark>
      <name>ЦОД StackTelecom M1</name>
      <visibility>1</visibility>
      <styleUrl>#icon-1337-nodesc</styleUrl>
      <Point>
        <coordinates>37.618803,55.625255,0.000000</coordinates>
      </Point>
    </Placemark>
  </Document>
</kml>
