<kml xmlns="http://www.opengis.net/kml/2.2">
  <Document>
    <name>icon-1193-labelson</name>
    <description>Подключенные дома ТВ</description>
    <visibility>1</visibility>
    <Style id="icon-1193-labelson">
      <IconStyle>
        <scale>1.1</scale>
        <Icon>
          <href>/home/sivikgosh/Рабочий стол/kml/kml_to_qgis/app/pictograms/1193-fac-animal-shelter.png</href>
        </Icon>
      </IconStyle>
    </Style>
    <Placemark>
      <name>Пётр I</name>
      <description>Ловител</description>
      <visibility>1</visibility>
      <styleUrl>#icon-1193-labelson</styleUrl>
      <Point>
        <coordinates>37.705671,55.753499,0.000000</coordinates>
      </Point>
    </Placemark>
    <Placemark>
      <name>Москва, Коровинское шоссе, вл.10</name>
      <description>Реновация, Ловител . Стык в Бескудниковский б-р, 56,к.1</description>
      <visibility>1</visibility>
      <styleUrl>#icon-1193-labelson</styleUrl>
      <Point>
        <coordinates>37.533546,55.871288,0.000000</coordinates>
      </Point>
    </Placemark>
    <Placemark>
      <name>Пересветов переулок, влд.5</name>
      <description>ловител Реновация, стык в Автозаводская улица, 2</description>
      <visibility>1</visibility>
      <styleUrl>#icon-1193-labelson</styleUrl>
      <Point>
        <coordinates>37.663002,55.712855,0.000000</coordinates>
      </Point>
    </Placemark>
    <Placemark>
      <name>ул. Краснодарская, вл.6</name>
      <description>Ловител реновация,  стык на Краснодарская улица, 7к1 у нас тут ничего
                    нет.</description>
      <visibility>1</visibility>
      <styleUrl>#icon-1193-labelson</styleUrl>
      <Point>
        <coordinates>37.741088,55.676220,0.000000</coordinates>
      </Point>
    </Placemark>
    <Placemark>
      <name>Новогиреево, Свободный проспект, влд. 25/27 (ВАО)</name>
      <description>Ловител реновация.&lt;br&gt;Точка присоединения-Свободный проспект, 10к1. Волокно до Авиатела/М9, сигнал.</description>
      <visibility>1</visibility>
      <styleUrl>#icon-1193-labelson</styleUrl>
      <Point>
        <coordinates>37.819626,55.755904,0.000000</coordinates>
      </Point>
    </Placemark>
    <Placemark>
      <name>Москва, пр-д 2-й Нагатинский, вл.2</name>
      <description>ЖК Нагатинский, Ловител. Стыковка по адресу: Нагатинская улица, 13к1</description>
      <visibility>1</visibility>
      <styleUrl>#icon-1193-labelson</styleUrl>
      <Point>
        <coordinates>37.641104,55.677785,0.000000</coordinates>
      </Point>
    </Placemark>
    <Placemark>
      <name>Волгоградский проспект, 140к2</name>
      <description>Ловител Реновация. Стыковка на Академика Скрябина, 32/175.</description>
      <visibility>1</visibility>
      <styleUrl>#icon-1193-labelson</styleUrl>
      <Point>
        <coordinates>37.785702,55.700354,0.000000</coordinates>
      </Point>
    </Placemark>
    <Placemark>
      <name>ул.Утренняя, влд.3 (ВАО)</name>
      <description>Ловител. реновация. Стыковка на Братской 23к1</description>
      <visibility>1</visibility>
      <styleUrl>#icon-1193-labelson</styleUrl>
      <Point>
        <coordinates>37.790212,55.747934,0.000000</coordinates>
      </Point>
    </Placemark>
    <Placemark>
      <name>Каширское ш., влд.76а</name>
      <description>Ловител Реновация</description>
      <visibility>1</visibility>
      <styleUrl>#icon-1193-labelson</styleUrl>
      <Point>
        <coordinates>37.675680,55.642048,0.000000</coordinates>
      </Point>
    </Placemark>
    <Placemark>
      <name>Фестивальная влд.13</name>
      <description>Реновация Ловител, стык в д.15к1</description>
      <visibility>1</visibility>
      <styleUrl>#icon-1193-labelson</styleUrl>
      <Point>
        <coordinates>37.477023,55.856926,0.000000</coordinates>
      </Point>
    </Placemark>
    <Placemark>
      <name>Петра Алексеева, вл. 12</name>
      <description>Ловител Реновация, стык в Можайское ш., д.25</description>
      <visibility>1</visibility>
      <styleUrl>#icon-1193-labelson</styleUrl>
      <Point>
        <coordinates>37.428361,55.716885,0.000000</coordinates>
      </Point>
    </Placemark>
    <Placemark>
      <name>Нагатинский Затон, ул. Судостроительная, влд. 15</name>
      <description>Реновация ЛовителТочка стыковки Нагатинская улица, 35к1</description>
      <visibility>1</visibility>
      <styleUrl>#icon-1193-labelson</styleUrl>
      <Point>
        <coordinates>37.672569,55.681642,0.000000</coordinates>
      </Point>
    </Placemark>
    <Placemark>
      <name>Открытое ш., влд.28/3</name>
      <description>Реновация Ловител, точка стыка Амурская ул., д.54</description>
      <visibility>1</visibility>
      <styleUrl>#icon-1193-labelson</styleUrl>
      <Point>
        <coordinates>37.768963,55.828232,0.000000</coordinates>
      </Point>
    </Placemark>
    <Placemark>
      <name>Клязьминская ул., влд. 28А</name>
      <description>Реновация Ловител, стык в муфте ТК 276 пред Лобненская, 12к1</description>
      <visibility>1</visibility>
      <styleUrl>#icon-1193-labelson</styleUrl>
      <Point>
        <coordinates>37.530017,55.892967,0.000000</coordinates>
      </Point>
    </Placemark>
    <Placemark>
      <name>Дмитровское ш. 89</name>
      <description>Пик Реновация, Коровинское шоссе, 3Ак1</description>
      <visibility>1</visibility>
      <styleUrl>#icon-1193-labelson</styleUrl>
      <Point>
        <coordinates>37.543320,55.862462,0.000000</coordinates>
      </Point>
    </Placemark>
    <Placemark>
      <name>ул. Зеленодольская 30</name>
      <description>Реновация ПИК Окская, д.5к1</description>
      <visibility>1</visibility>
      <styleUrl>#icon-1193-labelson</styleUrl>
      <Point>
        <coordinates>37.770961,55.711033,0.000000</coordinates>
      </Point>
    </Placemark>
    <Placemark>
      <name>1-я Владимирская </name>
      <description>Ловител. реновация. Стыковка на Братской 23к1</description>
      <visibility>1</visibility>
      <styleUrl>#icon-1193-labelson</styleUrl>
      <Point>
        <coordinates>37.782773,55.747053,0.000000</coordinates>
      </Point>
    </Placemark>
    <Placemark>
      <name>пр. Буденного д.47Б</name>
      <description>ближайшая точка присутствия пр. Буденного д.23</description>
      <visibility>1</visibility>
      <styleUrl>#icon-1193-labelson</styleUrl>
      <Point>
        <coordinates>37.738698,55.762001,0.000000</coordinates>
      </Point>
    </Placemark>
    <Placemark>
      <name>Бобруйская 15</name>
      <description>Точка стыка Молодогвардейская улица, 50</description>
      <visibility>1</visibility>
      <styleUrl>#icon-1193-labelson</styleUrl>
      <Point>
        <coordinates>37.397234,55.738041,0.000000</coordinates>
      </Point>
    </Placemark>
    <Placemark>
      <name>Пулковская улица, вл 3</name>
      <description>Реновация Ловител Проработка от Пулковская улица, 3к1</description>
      <visibility>1</visibility>
      <styleUrl>#icon-1193-labelson</styleUrl>
      <Point>
        <coordinates>37.480141,55.844655,0.000000</coordinates>
      </Point>
    </Placemark>
  </Document>
</kml>
